City ID,City,Cloudiness,Country,Date,Humidity,Lat,Lng,Max Temp,Wind Speed
0,Arraial do Cabo,84,BR,1599895285,90,-22.97,-42.03,22.01,11.17
1,Huarmey,75,PE,1599895410,85,-10.07,-78.15,15.44,1.57
2,Albany,0,US,1599895082,81,42.6,-73.97,10.0,1.22
3,Glendive,1,US,1599895357,87,47.11,-104.71,9.0,2.6
4,Sechura,13,PE,1599895730,82,-5.56,-80.82,16.57,3.53
5,Krasnosel'kup,5,RU,1599895405,54,65.7,82.47,17.94,6.8
6,Ushuaia,75,AR,1599895202,65,-54.8,-68.3,5.0,2.1
7,Mataura,100,NZ,1599895661,58,-46.19,168.86,12.78,4.02
8,Suntar,100,RU,1599895731,68,62.14,117.63,14.62,0.27
9,Ulaanbaatar,75,MN,1599895731,81,47.91,106.88,11.0,1.0
10,Busselton,46,AU,1599895289,44,-33.65,115.33,18.89,4.43
11,Hasaki,75,JP,1599895326,100,35.73,140.83,23.0,1.0
12,Maryville,1,US,1599895481,94,35.76,-83.97,23.89,0.74
13,Kuala Terengganu,40,MY,1599895732,70,5.33,103.14,32.0,2.6
14,Avarua,0,CK,1599895306,94,-21.21,-159.78,25.0,1.5
15,Cape Town,100,ZA,1599895215,82,-33.93,18.42,17.22,3.1
16,Ponta Delgada,40,PT,1599895733,72,37.73,-25.67,20.0,2.1
17,Tual,0,ID,1599895733,80,-5.67,132.75,26.41,7.57
18,Chokurdakh,0,RU,1599895284,51,70.63,147.92,13.73,0.73
19,Skjervøy,100,NO,1599895734,69,70.03,20.97,10.2,3.68
20,Atuona,33,PF,1599895289,75,-9.8,-139.03,26.03,9.66
21,Arinos,0,BR,1599895734,39,-15.92,-46.11,15.14,0.58
22,Aberdeen,40,GB,1599895545,76,57.14,-2.1,10.0,2.6
23,Klaksvík,95,FO,1599895735,76,62.23,-6.59,10.0,7.7
24,Puerto Ayora,78,EC,1599895284,91,-0.74,-90.35,19.44,3.58
25,Narsaq,0,GL,1599895361,43,60.92,-46.05,1.0,2.6
26,Bathsheba,0,BB,1599895288,88,13.22,-59.52,24.0,2.1
27,Port Elizabeth,20,ZA,1599895249,93,-33.92,25.57,18.0,6.2
28,Lavrentiya,78,RU,1599895736,70,65.58,-171.0,7.36,2.19
29,Cabedelo,40,BR,1599895692,94,-6.98,-34.83,21.0,2.6
30,Cherskiy,61,RU,1599895078,67,68.75,161.3,8.57,1.61
31,Rikitea,93,PF,1599895282,89,-23.12,-134.97,22.85,3.26
32,Coleraine,20,GB,1599895685,87,55.13,-6.67,11.0,8.2
33,Kapaa,75,US,1599895287,74,22.08,-159.32,27.0,7.2
34,Bontang,92,ID,1599895737,76,0.13,117.5,28.43,2.71
35,Bijapur,99,IN,1599895737,65,16.83,75.7,28.65,5.92
36,Vaini,40,TO,1599895294,83,-21.2,-175.2,21.0,4.1
37,Goundam,71,ML,1599895737,50,16.41,-3.67,30.67,4.9
38,Carnarvon,2,AU,1599895306,43,-24.87,113.63,23.0,12.3
39,Lagoa,0,PT,1599895374,79,39.05,-27.98,21.26,3.5
40,Port Lincoln,100,AU,1599895315,92,-34.73,135.87,12.36,4.9
41,Touros,40,BR,1599895415,88,-5.2,-35.46,22.0,2.6
42,Khasan,100,RU,1599895738,89,42.43,130.64,16.74,0.95
43,Kavieng,28,PG,1599895292,68,-2.57,150.8,29.63,3.7
44,Elk Point,90,US,1599895739,100,42.68,-96.68,13.0,1.5
45,Xalapa,100,MX,1599895739,90,19.53,-96.92,16.22,2.15
46,Yenagoa,100,NG,1599895385,92,4.92,6.26,24.25,1.68
47,Namatanai,24,PG,1599895327,80,-3.67,152.43,28.16,4.53
48,Belaya Gora,0,RU,1599895740,43,68.53,146.42,15.46,1.11
49,Havøysund,86,NO,1599895740,62,71.0,24.66,11.0,3.6
50,Burnie,100,AU,1599895354,81,-41.07,145.92,11.11,1.79
51,Porto-Novo,40,BJ,1599895051,88,6.5,2.6,26.0,5.1
52,Bluff,100,NZ,1599895290,58,-46.6,168.33,12.78,4.02
53,Palafrugell,100,ES,1599895741,48,41.92,3.16,22.78,2.49
54,Bredasdorp,67,ZA,1599895314,82,-34.53,20.04,16.0,0.5
55,Basco,10,PH,1599895321,70,20.45,121.97,29.7,4.54
56,Hithadhoo,0,MV,1599895666,77,-0.6,73.08,27.85,4.75
57,East London,20,ZA,1599895277,88,-33.02,27.91,19.0,5.1
58,Clyde River,1,CA,1599895319,92,70.47,-68.59,-2.0,1.0
59,Yellowknife,20,CA,1599895294,86,62.46,-114.35,4.0,4.1
60,Berdigestyakh,96,RU,1599895743,64,62.1,126.7,15.63,0.26
61,Pisco,90,PE,1599895342,87,-13.7,-76.22,16.0,2.6
62,Santa Maria,100,BR,1599895743,93,-29.68,-53.81,17.96,4.78
63,Izumo,75,JP,1599895743,100,35.37,132.77,23.0,4.1
64,Cabo Rojo,100,PR,1599895743,96,18.09,-67.15,25.56,1.34
65,Port Alfred,83,ZA,1599895300,69,-33.59,26.89,21.21,12.21
66,Castro,82,BR,1599895239,51,-24.79,-50.01,18.56,1.39
67,Nshamba,75,TZ,1599895744,83,-1.8,31.55,21.0,4.48
68,Kangaba,100,ML,1599895744,95,11.93,-8.42,21.6,1.32
69,Kedrovyy,91,RU,1599895300,54,56.17,91.82,14.0,1.0
70,Barrow,90,US,1599895306,87,71.29,-156.79,0.0,2.6
71,Turukhansk,100,RU,1599895745,84,65.82,87.98,14.67,5.72
72,Isangel,90,VU,1599895320,69,-19.55,169.27,24.0,5.1
73,Richards Bay,3,ZA,1599895364,63,-28.78,32.04,22.65,4.19
74,Airai,62,TL,1599895329,46,-8.93,125.41,22.8,2.87
75,Manavālakurichi,75,IN,1599895746,74,8.13,77.3,31.0,1.5
76,Hermanus,57,ZA,1599895300,78,-34.42,19.23,18.89,0.45
77,Rio Rancho,0,US,1599895746,65,35.23,-106.66,12.78,1.6
78,Mahon,20,ES,1599895747,83,39.89,4.27,23.0,4.1
79,Camalú,0,MX,1599895747,62,30.85,-116.07,22.17,2.01
80,Podosinovets,44,RU,1599895747,80,60.28,47.07,11.97,3.04
81,Qaanaaq,100,GL,1599895747,93,77.48,-69.36,-1.39,4.98
82,Geraldton,0,AU,1599895748,49,-28.77,114.6,20.0,9.3
83,Punta Arenas,76,CL,1599895254,86,-53.15,-70.92,3.0,2.6
84,Oodweyne,9,SO,1599895377,40,9.41,45.06,28.18,9.26
85,Bethel,40,US,1599895283,76,41.37,-73.41,13.0,2.1
86,Grindavik,74,IS,1599895337,81,63.84,-22.43,8.0,5.7
87,Chui,100,UY,1599895309,70,-33.7,-53.46,10.57,4.8
88,Zhigansk,98,RU,1599895749,88,66.77,123.37,10.23,0.75
89,Longyearbyen,75,SJ,1599895286,86,78.22,15.64,3.0,1.5
90,Knysna,82,ZA,1599895749,100,-34.04,23.05,16.0,1.5
91,Ancud,54,CL,1599895318,100,-41.87,-73.82,7.78,7.15
92,Jamestown,1,US,1599895277,93,42.1,-79.24,10.0,2.1
93,Miles City,1,US,1599895750,61,46.41,-105.84,10.0,2.6
94,Hvide Sande,100,DK,1599895611,79,56.0,8.13,15.56,2.24
95,Hilo,90,US,1599895303,69,19.73,-155.09,26.0,1.5
96,Boende,100,CD,1599895751,93,-0.22,20.87,22.75,0.84
97,Lakes Entrance,100,AU,1599895751,77,-37.88,147.98,14.44,1.34
98,Chongwe,0,ZM,1599895371,40,-15.33,28.68,21.0,8.2
99,Upernavik,0,GL,1599895292,75,72.79,-56.15,-3.25,2.95
100,Camocim,47,BR,1599895751,82,-2.9,-40.84,24.33,7.34
101,Beira,40,MZ,1599895752,83,-19.84,34.84,24.0,4.6
102,Mnogovershinnyy,8,RU,1599895752,56,53.94,139.92,15.79,2.15
103,Paamiut,0,GL,1599895412,70,61.99,-49.67,1.48,3.36
104,Hobart,75,AU,1599895308,62,-42.88,147.33,12.0,2.6
105,Mar del Plata,0,AR,1599895312,62,-38.0,-57.56,7.78,5.81
106,Rawson,0,AR,1599895515,46,-43.3,-65.1,10.77,8.83
107,Rewa,67,IN,1599895753,43,24.53,81.3,34.04,0.42
108,Oistins,0,BB,1599895753,88,13.07,-59.53,24.0,2.1
109,Souillac,40,MU,1599895288,78,-20.52,57.52,24.0,5.7
110,Nikolskoye,75,RU,1599895031,76,59.7,30.79,12.22,5.0
111,Lompoc,90,US,1599895299,93,34.64,-120.46,13.0,3.0
112,Talnakh,40,RU,1599895287,72,69.49,88.4,15.0,10.0
113,Westport,1,US,1599895333,72,41.14,-73.36,17.0,4.1
114,Tasiilaq,100,GL,1599895294,80,65.61,-37.64,1.0,1.5
115,Butaritari,66,KI,1599895325,71,3.07,172.79,28.0,7.26
116,Thompson,90,CA,1599895307,100,55.74,-97.86,7.0,1.5
117,Saint-Philippe,36,RE,1599895311,65,-21.36,55.77,25.0,10.8
118,Ginda,75,IN,1599895756,66,30.69,78.49,31.0,2.6
119,Deputatsky,55,RU,1599895374,49,69.3,139.9,13.14,1.3
120,Mazara del Vallo,20,IT,1599895757,83,37.66,12.59,23.0,1.5
121,Norman Wells,75,CA,1599895315,65,65.28,-126.83,7.0,1.5
122,Saint George,1,US,1599895757,17,37.1,-113.58,21.11,3.6
123,Khanpur,8,PK,1599895757,25,28.65,70.66,39.66,2.11
124,Tawang Town,100,IN,1599895757,60,27.58,91.87,20.42,3.17
125,Fortuna,90,US,1599895380,100,40.6,-124.16,12.22,2.1
126,Junction City,90,US,1599895758,87,39.03,-96.83,15.0,3.27
127,Lerwick,40,GB,1599895758,81,60.15,-1.15,10.0,11.3
128,Erenhot,0,CN,1599895758,34,43.65,111.98,23.98,4.02
129,Kahului,40,US,1599895365,61,20.89,-156.47,27.0,5.7
130,Conde,40,BR,1599895332,94,-7.26,-34.91,21.0,2.6
131,Inuvik,90,CA,1599895759,93,68.35,-133.72,2.0,6.2
132,Vardø,84,NO,1599895322,78,70.37,31.11,8.79,9.42
133,São Filipe,100,CV,1599895324,82,14.9,-24.5,26.45,2.22
134,Olsztyn,20,PL,1599895493,93,53.78,20.49,11.0,1.0
135,Vao,64,NC,1599895336,71,-22.67,167.48,19.77,8.89
136,Tarnogskiy Gorodok,62,RU,1599895760,83,60.5,43.58,11.76,3.12
137,Altay,0,CN,1599895760,25,47.87,88.12,16.82,1.71
138,Hartselle,1,US,1599895760,88,34.44,-86.94,23.89,2.1
139,Torbay,90,CA,1599895314,87,47.67,-52.73,8.89,4.6
140,Quelimane,40,MZ,1599895761,73,-17.88,36.89,25.0,1.0
141,Alta Floresta,0,BR,1599895761,47,-9.88,-56.09,20.36,0.76
142,Borovoy,0,RU,1599895761,51,55.43,86.08,16.0,2.0
143,Provideniya,10,RU,1599895358,72,64.38,-173.3,6.35,1.68
144,Kiunga,14,PG,1599895762,92,-6.12,141.29,27.05,1.67
145,Knyaze-Volkonskoye,0,RU,1599895762,40,48.46,135.46,20.0,2.0
146,Pangnirtung,88,CA,1599895395,82,66.15,-65.71,1.72,1.06
147,Dikson,0,RU,1599895306,85,73.51,80.55,8.07,9.79
148,Cidreira,100,BR,1599895763,96,-30.18,-50.21,17.3,3.89
149,Kapit,48,MY,1599895763,71,2.02,112.93,30.5,1.96
150,Hualmay,63,PE,1599895146,85,-11.1,-77.61,14.89,1.76
151,Saint Paul Harbor,1,US,1599895310,70,57.79,-152.41,9.0,2.6
152,Dharmanagar,100,IN,1599895764,84,24.37,92.17,30.29,1.56
153,Krasnooktyabrskiy,0,RU,1599895764,44,44.93,38.37,25.56,0.45
154,Saint Anthony,90,US,1599895390,93,45.02,-93.22,13.33,2.6
155,Severnoye,100,RU,1599895765,64,56.35,78.36,17.24,3.09
156,Nemuro,75,JP,1599895364,67,43.32,145.57,15.0,5.1
157,Shimoda,75,JP,1599895765,94,34.67,138.95,25.0,9.8
158,Aklavik,90,CA,1599895318,93,68.22,-135.01,2.0,5.7
159,Husavik,90,IS,1599895131,87,66.04,-17.34,6.0,5.1
160,Kuching,40,MY,1599895397,79,1.55,110.33,29.0,2.6
161,Fairbanks,90,US,1599895766,70,64.84,-147.72,8.0,3.1
162,Kunming,75,CN,1599895766,94,25.04,102.72,23.89,3.0
163,Sitka,20,US,1599895335,87,57.05,-135.33,10.0,1.13
164,Porto Santo,75,PT,1599895766,77,33.07,-16.34,21.0,3.1
165,Buraidah,0,SA,1599895767,19,26.33,43.98,37.0,1.5
166,Vila,92,PT,1599895346,77,42.03,-8.16,17.22,1.34
167,Puerto Carreño,100,CO,1599895767,88,6.19,-67.49,24.49,1.91
168,Tiksi,79,RU,1599895301,65,71.69,128.87,11.0,3.34
169,Safi,100,MA,1599895406,86,32.3,-9.24,21.09,2.8
170,Chapais,1,CA,1599895343,100,49.78,-74.85,4.0,1.0
171,Belmonte,40,BR,1599895329,73,-15.86,-38.88,22.0,2.1
172,Hanzhong,100,CN,1599895768,67,33.07,107.03,23.78,1.5
173,Koudougou,90,BF,1599895769,86,12.25,-2.37,24.42,2.59
174,Pital,94,CO,1599895770,74,2.27,-75.8,18.91,1.77
175,Tignère,100,CM,1599895770,94,7.37,12.65,19.4,0.69
176,Tautira,20,PF,1599895300,74,-17.73,-149.15,26.0,2.1
177,Mandera,0,KE,1599895770,43,3.94,41.87,30.68,7.64
178,Aykhal,75,RU,1599895771,66,66.0,111.5,11.0,1.0
179,New Norfolk,96,AU,1599895329,61,-42.78,147.06,11.67,0.45
180,Muros,53,ES,1599895771,82,42.78,-9.06,19.44,1.79
181,Bonthe,99,SL,1599895402,89,7.53,-12.51,24.19,1.69
182,Kieta,19,PG,1599895326,77,-6.22,155.63,27.97,2.16
183,Mīāndoāb,20,IR,1599895772,25,36.97,46.1,29.0,1.6
184,Kaitangata,100,NZ,1599895352,42,-46.28,169.85,13.33,3.58
185,Calvinia,3,ZA,1599895772,20,-31.47,19.78,23.52,4.77
186,Mayumba,74,GA,1599895772,85,-3.43,10.66,24.15,3.28
187,George Town,40,MY,1599895281,74,5.41,100.34,30.0,5.1
188,Gobō,40,JP,1599895773,79,33.88,135.15,31.11,4.1
189,Khatanga,100,RU,1599895295,56,71.97,102.5,12.32,2.45
190,Morón,0,AR,1599895301,80,-34.65,-58.62,10.56,1.0
191,Murgab,0,TM,1599895773,27,37.5,61.97,26.0,3.1
192,Oktyabr'skiy,99,RU,1599895143,78,54.48,53.47,13.25,4.52
193,Arman',27,RU,1599895774,53,59.7,150.17,14.28,3.36
194,Los Llanos de Aridane,40,ES,1599895381,78,28.66,-17.92,23.0,1.5
195,Huilong,89,CN,1599895774,76,31.81,121.66,28.33,4.66
196,Yulara,0,AU,1599895774,9,-25.24,130.99,36.0,1.5
197,Morden,40,CA,1599895774,100,49.19,-98.1,10.0,2.6
198,Santa Rosa,90,PH,1599895598,70,14.31,121.11,30.0,2.6
199,Nuuk,0,GL,1599895744,55,64.18,-51.72,1.0,5.7
200,Hīt,0,IQ,1599895775,8,33.64,42.83,40.78,1.78
201,Saskylakh,0,RU,1599895312,50,71.92,114.08,13.24,2.32
202,Tiarei,20,PF,1599895331,74,-17.53,-149.33,26.0,2.1
203,Portland,90,US,1599895683,87,45.52,-122.68,13.0,1.5
204,Ahipara,0,NZ,1599895776,66,-35.17,173.17,8.96,3.54
205,Casablanca,75,MA,1599895569,78,33.59,-7.62,22.0,3.1
206,Colares,100,PT,1599895777,52,38.8,-9.45,22.22,2.1
207,Asău,1,RO,1599895379,69,46.43,26.4,20.0,1.13
208,Ilulissat,84,GL,1599895313,68,69.22,-51.1,-2.0,6.7
209,Nome,20,US,1599895401,75,64.5,-165.41,7.0,3.1
210,Huzhou,42,CN,1599895777,58,30.87,120.09,29.44,4.51
211,Soledade,100,BR,1599895326,98,-28.82,-52.51,16.87,1.23
212,Yangi Marg`ilon,0,UZ,1599895778,20,40.43,71.72,28.0,5.1
213,Pļaviņas,71,LV,1599895778,72,56.62,25.73,12.93,3.61
214,Ribeira Grande,20,PT,1599895778,88,38.52,-28.7,19.0,2.1
215,Narathiwat,20,TH,1599895779,62,6.33,101.75,32.0,3.6
216,Maniitsoq,11,GL,1599895779,81,65.42,-52.9,1.11,4.35
217,Bambous Virieux,40,MU,1599895323,78,-20.34,57.76,24.44,5.7
218,Vila Franca do Campo,75,PT,1599895320,77,37.72,-25.43,19.0,2.1
219,Bengkulu,94,ID,1599895405,66,-3.8,102.27,28.81,3.16
220,Puerto del Rosario,20,ES,1599895769,73,28.5,-13.86,23.0,2.6
221,Aswān,0,EG,1599895334,13,24.09,32.91,35.96,4.63
222,Broome,1,US,1599895297,93,42.25,-75.83,8.89,2.1
223,Lastoursville,100,GA,1599895780,87,-0.81,12.73,23.91,1.49
224,Tura,99,IN,1599895781,95,25.52,90.22,25.73,2.85
225,Capreol,5,CA,1599895781,93,46.71,-80.92,9.0,1.5
226,Saint-Pierre,40,RE,1599895594,65,-21.34,55.48,25.0,10.8
227,Sosnogorsk,99,RU,1599895781,82,63.6,53.88,9.67,3.54
228,Paphos,40,CY,1599895781,66,34.77,32.42,30.0,4.6
229,Pontianak,42,ID,1599895366,74,-0.03,109.33,29.62,2.81
230,San Patricio,38,MX,1599895296,85,19.22,-104.7,25.82,1.96
231,Avera,1,US,1599895307,93,33.19,-82.53,23.89,1.5
232,Palimbang,67,PH,1599895782,72,6.21,124.19,29.28,1.44
233,Tuktoyaktuk,100,CA,1599895321,87,69.45,-133.04,2.27,8.93
234,Katsuura,75,JP,1599895145,94,35.13,140.3,25.0,6.2
235,Margate,75,GB,1599895783,64,51.38,1.39,15.0,2.68
236,Lewiston,1,US,1599895783,93,44.1,-70.21,7.22,1.41
237,Wilmington,90,US,1599895783,94,34.23,-77.94,24.44,4.1
238,Coquimbo,0,CL,1599895311,87,-29.95,-71.34,10.0,1.5
239,Walla Walla,90,US,1599895784,24,46.06,-118.34,20.0,3.1
240,Astoria,90,US,1599895784,93,46.19,-123.83,13.89,0.25
241,Markova,82,UA,1599895784,67,48.68,24.41,19.16,0.61
242,Ambon City,70,ID,1599895398,81,-3.7,128.18,26.53,7.06
243,Olafsvik,100,IS,1599895351,81,64.89,-23.71,6.82,14.89
244,Bongandanga,99,CD,1599895496,92,1.5,21.05,23.52,0.73
245,Lebu,45,CL,1599895322,85,-37.62,-73.65,7.83,1.82
246,Omsukchan,91,RU,1599895785,59,62.53,155.8,8.6,4.04
247,Tarancón,1,ES,1599895785,59,40.01,-3.01,20.0,2.1
248,Faanui,2,PF,1599895306,77,-16.48,-151.75,25.8,6.42
249,Beringovskiy,100,RU,1599895333,77,63.05,179.32,8.64,8.86
250,Alexandria,0,EG,1599895600,66,31.22,29.96,29.0,5.1
251,Northam,100,GB,1599895413,88,51.03,-4.22,15.56,1.79
252,Yar-Sale,9,RU,1599895338,54,66.83,70.83,17.26,8.88
253,Kawalu,56,ID,1599895787,56,-7.38,108.21,28.47,3.36
254,San Rafael,0,AR,1599895095,42,-34.62,-68.33,9.39,2.89
255,Puerto Escondido,100,MX,1599895787,82,15.85,-97.07,26.65,2.35
256,Yumen,0,CN,1599895787,20,40.28,97.2,22.29,3.44
257,Kang,0,BW,1599895787,28,-23.68,22.79,19.58,6.83
258,Kirkuk,0,IQ,1599895788,7,35.47,44.39,41.18,2.53
259,Iqaluit,90,CA,1599895287,93,63.75,-68.51,3.0,1.5
260,Terrace,75,CA,1599895162,67,54.52,-128.6,16.0,0.54
261,Kuytun,100,RU,1599895788,91,54.34,101.5,7.56,4.78
262,Byron Bay,75,AU,1599895789,68,-28.65,153.62,19.0,5.1
263,Tegul'det,45,RU,1599895789,54,57.31,88.17,16.76,1.78
264,Senanga,0,ZM,1599895789,20,-16.12,23.27,24.52,4.75
265,The Valley,40,AI,1599895389,83,18.22,-63.06,27.22,0.45
266,Oruzgan,0,AF,1599895394,14,32.83,66.0,26.64,1.61
267,Nabire,100,ID,1599895790,72,-3.37,135.48,29.29,1.52
268,Trelew,0,AR,1599895790,44,-43.25,-65.31,10.83,10.18
269,Koumac,56,NC,1599895791,69,-20.57,164.28,22.12,2.52
270,Sabla,100,NG,1599895791,80,12.75,4.71,25.88,3.63
271,Cabo San Lucas,11,MX,1599895781,87,22.89,-109.91,26.67,0.89
272,Sarkand,0,KZ,1599895791,13,45.41,79.92,28.11,3.36
273,Fare,28,PF,1599895791,74,-16.7,-151.02,26.4,5.28
274,Kabinda,0,CD,1599895792,55,-6.13,24.48,27.36,2.23
275,Egvekinot,48,RU,1599895363,79,66.32,-179.17,5.46,0.5
276,Hong Kong,40,HK,1599895287,59,22.29,114.16,33.0,3.6
277,Dunedin,100,NZ,1599895783,71,-45.87,170.5,11.11,1.01
278,Constitución,0,CL,1599895792,74,-35.33,-72.42,7.75,3.61
279,Kholodnyy,46,RU,1599895792,42,62.72,147.95,12.46,1.82
280,Mahibadhoo,92,MV,1599895327,79,3.78,72.97,27.94,4.97
281,Chulumani,92,BO,1599895793,63,-16.41,-67.53,16.94,0.28
282,Jumla,98,NP,1599895340,92,29.27,82.18,26.11,0.89
283,Bandarbeyla,2,SO,1599895347,39,9.49,50.81,33.41,9.1
284,Shebekino,0,RU,1599895793,48,50.41,36.91,16.0,1.0
285,Bubaque,100,GW,1599895355,89,11.28,-15.83,24.65,4.36
286,Imbituba,3,BR,1599895794,94,-28.24,-48.67,20.0,7.2
287,Parli,38,IN,1599895794,67,18.85,76.53,29.81,2.95
288,Taltal,79,CL,1599895794,80,-25.4,-70.48,12.79,1.37
289,Vágur,40,FO,1599895795,78,61.47,-6.81,9.99,12.71
290,Pout,40,SN,1599895795,94,14.77,-17.06,24.0,6.2
291,Coahuayana Viejo,79,MX,1599895317,85,18.73,-103.68,25.24,1.52
292,Poum,67,NC,1599895304,71,-20.23,164.02,22.23,6.66
293,Surab,3,PK,1599895796,21,28.49,66.26,26.81,6.24
294,Rosarito,5,MX,1599895796,88,32.33,-117.03,20.56,4.0
295,Puri,75,IN,1599895796,75,19.8,85.85,33.0,1.0
296,Gizo Government Station,24,SB,1599895796,76,-8.1,156.84,28.28,2.67
297,Sabang,100,ID,1599895381,67,5.89,95.32,28.48,3.96
298,Labuhan,21,ID,1599895409,48,-6.88,112.21,31.84,4.8
299,Mgandu,0,TZ,1599895316,43,-5.95,34.13,22.97,5.62
300,Qinhuangdao,12,CN,1599895556,66,39.93,119.59,24.22,5.74
301,Nanortalik,0,GL,1599895316,73,60.14,-45.24,3.39,2.25
302,Nerchinskiy Zavod,10,RU,1599895798,50,51.31,119.61,19.03,2.87
303,Praia,100,CV,1599895798,86,14.92,-23.51,25.94,3.89
304,Valparaíso,99,CL,1599895798,81,-33.04,-71.63,10.0,6.4
305,Swan River,0,CA,1599895798,80,52.11,-101.27,12.98,2.21
306,Samarai,0,PG,1599895798,69,-10.62,150.67,24.76,5.16
307,Narasapuram,100,IN,1599895799,67,16.45,81.67,30.97,3.51
308,Andenes,100,NO,1599895312,87,69.31,16.12,10.0,3.1
309,Kenai,1,US,1599895799,86,60.55,-151.26,4.0,0.89
310,Maragogi,0,BR,1599895800,82,-9.01,-35.22,21.95,4.45
311,Port Hedland,42,AU,1599895800,10,-20.32,118.57,39.0,5.7
312,Lüderitz,0,NA,1599895284,64,-26.65,15.16,17.21,6.84
313,Serenje,0,ZM,1599895801,37,-13.23,30.24,22.36,5.45
314,Vaitape,3,PF,1599895801,75,-16.52,-151.75,26.29,6.49
315,Vila Velha,40,BR,1599895379,83,-20.33,-40.29,23.0,4.1
316,Atar,17,MR,1599895392,54,20.52,-13.05,30.82,3.52
317,Yerbogachën,62,RU,1599895367,51,61.28,108.01,14.81,0.75
318,Kalmunai,100,LK,1599895398,50,7.42,81.82,32.12,1.91
319,Lima,90,PE,1599895536,87,-12.04,-77.03,15.0,2.6
320,Soyo,75,AO,1599895807,94,-6.13,12.37,23.0,3.35
321,Sestri Levante,0,IT,1599895781,99,44.27,9.4,26.11,2.69
322,Half Moon Bay,90,US,1599895309,100,37.46,-122.43,16.11,1.5
323,Iskateley,46,RU,1599895808,74,67.68,53.15,11.56,6.08
324,Abbeville,67,FR,1599895804,48,50.1,1.83,13.89,3.8
325,Naze,75,JP,1599895302,89,28.37,129.48,31.0,4.6
326,Phalombe,40,MW,1599895809,35,-15.81,35.65,25.82,2.21
327,Filingué,98,NE,1599895809,55,14.35,3.32,29.46,4.88
328,Vakhrushev,0,RU,1599895810,65,48.98,142.97,14.25,5.72
329,Sorong,93,ID,1599895810,81,-0.88,131.25,27.99,5.82
330,Milledgeville,40,US,1599895810,94,33.08,-83.23,25.0,2.1
331,Ajdabiya,0,LY,1599895811,36,30.76,20.23,28.81,1.03
332,Pevek,1,RU,1599895381,85,69.7,170.31,5.8,1.19
333,Tres Arroyos,0,AR,1599895811,67,-38.37,-60.28,4.55,5.03
334,Salalah,23,OM,1599895372,74,17.02,54.09,28.0,4.1
335,Yabrūd,20,SY,1599895812,58,33.97,36.66,30.0,4.1
336,Berlevåg,66,NO,1599895812,70,70.86,29.09,8.93,4.28
337,Baft,0,IR,1599895812,17,29.23,56.61,25.33,3.38
338,Bayanday,100,RU,1599895813,93,53.07,105.51,7.96,1.38
339,Leoben,11,AT,1599895811,93,47.35,15.13,17.22,0.91
340,Hofn,100,IS,1599895299,74,64.25,-15.21,7.92,8.46
341,Saldanha,100,ZA,1599895290,82,-33.01,17.94,16.0,2.1
342,Panguna,64,PG,1599895814,100,-6.32,155.48,22.09,0.57
343,Caborca,0,MX,1599895815,33,30.58,-111.1,22.72,0.49
344,Gigmoto,100,PH,1599895815,72,13.78,124.39,29.35,0.97
345,Benghazi,0,LY,1599895255,63,32.12,20.07,26.13,1.66
346,Ariquemes,70,BR,1599895817,76,-9.91,-63.04,23.98,0.79
347,Thunder Bay,90,CA,1599895817,93,48.4,-89.32,10.0,1.0
348,Ouallam,72,NE,1599895817,57,14.32,2.09,28.76,4.38
349,Linxia Chengguanzhen,77,CN,1599895817,37,35.6,103.21,22.64,1.75
350,Ternate,100,ID,1599895818,76,0.8,127.4,28.28,3.04
351,Mount Gambier,90,AU,1599895349,100,-37.83,140.77,13.0,4.6
352,Carballo,1,ES,1599895818,100,43.21,-8.69,17.78,1.0
353,San Lorenzo,40,PY,1599895818,37,-25.33,-57.53,29.0,6.7
354,Ballina,40,AU,1599895818,68,-28.87,153.57,18.0,3.1
355,Beni Mazar,0,EG,1599895819,30,28.5,30.8,33.67,2.86
356,Tuatapere,100,NZ,1599895385,58,-46.13,167.68,12.78,4.02
357,Puerto Madryn,0,AR,1599895819,47,-42.77,-65.04,10.38,7.99
358,Adrar,11,MR,1599895666,31,20.5,-10.07,32.83,4.03
359,Mahon,20,ES,1599895820,83,39.89,4.27,23.0,4.1
360,Krasnogorodsk,59,RU,1599895820,57,56.83,28.28,15.59,4.92
361,Vanimo,3,PG,1599895303,69,-2.67,141.3,29.55,4.49
362,Esperance,75,AU,1599895291,59,-33.87,121.9,18.0,4.6
363,Nyurba,100,RU,1599895821,82,63.28,118.33,10.09,1.14
364,Port Blair,100,IN,1599895821,77,11.67,92.75,28.27,6.26
365,Hamilton,1,US,1599895285,88,39.18,-84.53,18.89,1.5
366,Ulladulla,90,AU,1599895334,31,-35.35,150.47,24.0,4.6
367,Båtsfjord,69,NO,1599895822,69,70.63,29.72,9.03,5.52
368,Cockburn Town,11,TC,1599895350,78,21.46,-71.14,27.69,5.78
369,Langnau,0,CH,1599895822,93,46.94,7.79,17.78,0.5
370,Mbandaka,77,CD,1599895822,69,0.05,18.26,26.31,1.51
371,Udachny,75,RU,1599895358,66,66.42,112.4,11.0,1.0
372,Tahoua,92,NE,1599895823,83,14.89,5.27,26.0,3.1
373,Port Hardy,5,CA,1599895349,93,50.7,-127.42,11.0,1.0
374,San Policarpo,100,PH,1599895823,69,12.18,125.51,30.09,2.8
375,Kutum,100,SD,1599895823,67,14.2,24.67,23.94,2.47
376,Märsta,75,SE,1599895824,76,59.62,17.85,14.0,5.7
377,Pullman,1,US,1599895824,29,46.73,-117.18,19.44,1.75
378,Teya,90,RU,1599895614,55,60.38,92.63,15.14,1.89
379,Lata,24,PT,1599895308,87,40.16,-8.33,16.11,1.0
380,Sirte,10,LY,1599895414,49,31.21,16.59,27.58,5.08
381,Okhotsk,0,RU,1599895825,66,59.38,143.3,13.74,3.57
382,Ponta do Sol,40,PT,1599895310,64,32.67,-17.1,22.0,2.6
383,Zambrano,99,CO,1599895825,89,9.75,-74.82,24.22,0.63
384,Aktau,0,KZ,1599895801,28,43.65,51.2,27.0,3.0
385,Nouadhibou,0,MR,1599895307,65,20.93,-17.03,27.0,6.2
386,Khovd,0,MN,1599895412,40,48.01,91.64,10.42,1.89
387,Ürümqi,0,CN,1599895826,17,43.8,87.6,22.0,4.0
388,Hauterive,77,FR,1599895826,63,46.09,3.45,17.0,1.5
389,Kruisfontein,56,ZA,1599895364,68,-34.0,24.73,19.22,2.78
390,Yelizovo,20,RU,1599895827,67,53.19,158.38,14.0,1.0
391,Abéché,100,TD,1599895827,58,13.83,20.83,27.0,4.01
392,Alofi,0,NU,1599895313,88,-19.06,-169.92,23.0,2.6
393,Lusaka,0,ZM,1599895746,40,-15.41,28.29,21.0,8.2
394,Mahébourg,40,MU,1599895203,78,-20.41,57.7,24.0,5.7
395,Tutóia,71,BR,1599895828,79,-2.76,-42.27,25.33,6.7
396,Galeana,91,MX,1599895828,87,24.83,-100.07,15.49,1.37
397,Sur,85,OM,1599895295,35,22.57,59.53,33.5,3.75
398,Praia da Vitória,75,PT,1599895829,83,38.73,-27.07,21.0,2.24
399,Mian Channu,0,PK,1599895829,20,30.44,72.35,40.56,3.22
400,Laas,40,IT,1599895288,100,46.62,10.7,13.0,0.18
401,Wajima,40,JP,1599895304,74,37.4,136.9,28.0,2.6
402,Anadyr,75,RU,1599895829,87,64.75,177.48,7.0,5.0
403,Kavaratti,90,IN,1599895379,79,10.57,72.64,29.0,3.1
404,Sidi Ali,91,DZ,1599895830,43,36.1,0.42,25.0,4.19
405,La Orilla,88,MX,1599895830,83,17.98,-102.23,25.16,2.18
406,Shelburne,1,CA,1599895831,93,44.08,-80.2,9.44,1.0
407,Roswell,20,US,1599895831,88,34.02,-84.36,25.0,3.24
408,Ulaangom,2,MN,1599895831,32,49.98,92.07,14.82,3.82
409,Pau dos Ferros,0,BR,1599895831,81,-6.11,-38.21,19.23,2.06
410,Agadez,2,NE,1599895832,16,19.75,10.25,33.26,5.68
411,Cusuna,22,HN,1599895832,86,15.85,-85.23,24.57,1.92
412,Alekseyevsk,100,RU,1599895832,90,57.84,108.35,9.86,4.15
413,La Ronge,5,CA,1599895363,71,55.1,-105.28,11.0,6.7
414,Opuwo,0,NA,1599895833,16,-18.06,13.84,25.74,6.0
415,Sampit,98,ID,1599895833,77,-2.53,112.95,28.75,2.65
416,Świnoujście,0,PL,1599895611,82,53.91,14.25,14.0,4.1
417,Te Anau,100,NZ,1599895833,85,-45.42,167.72,7.22,3.22
418,Imelda,100,PH,1599895834,73,7.65,123.95,29.46,1.68
419,Urdoma,59,RU,1599895834,70,61.75,48.54,12.79,3.03
420,Dauriya,100,RU,1599895835,57,49.93,116.87,16.67,5.8
421,Sioux Lookout,75,CA,1599895369,76,50.1,-91.92,12.0,2.6
422,High Level,1,CA,1599895341,100,58.52,-117.14,1.0,1.62
423,Kondoa,7,TZ,1599895835,44,-4.9,35.78,23.66,3.74
424,Craig,1,US,1599895835,75,40.52,-107.55,6.0,2.1
425,Bowen,40,AU,1599895339,60,-20.02,148.23,24.0,9.3
426,Meulaboh,100,ID,1599895836,64,4.14,96.13,28.28,0.71
427,Haines Junction,0,CA,1599895367,83,60.75,-137.51,1.83,0.51
428,Altoona,31,US,1599895836,88,40.52,-78.39,12.22,1.36
429,Tirumullaivāsal,100,IN,1599895836,58,11.23,79.83,31.79,4.51
430,Vitim,100,RU,1599895837,86,59.45,112.56,12.37,2.48
431,Camaná,64,PE,1599895837,79,-16.62,-72.71,14.39,2.65
432,Biak,94,ID,1599895837,77,-0.91,122.88,26.82,4.07
433,Ropar,40,IN,1599895838,63,30.97,76.53,35.0,1.5
434,La Asuncion,92,VE,1599895838,100,11.03,-63.86,21.0,1.5
435,Jining,99,CN,1599895838,64,35.41,116.58,25.31,3.51
436,Severo-Kuril'sk,78,RU,1599895286,82,50.68,156.12,10.33,12.05
437,Caravelas,1,BR,1599895293,86,-17.71,-39.25,20.71,2.5
438,Saint-Vallier,50,FR,1599895839,82,46.64,4.37,21.11,1.5
439,Moussoro,70,TD,1599895839,59,13.64,16.49,30.8,3.22
440,Spas,37,UA,1599895839,59,48.89,24.06,21.65,0.79
441,Calatrava,75,PH,1599895839,66,10.6,123.48,31.0,2.6
442,Roebourne,23,AU,1599895840,17,-20.78,117.13,35.17,5.64
443,Kiruna,100,SE,1599895840,75,67.86,20.23,7.0,6.2
444,Nouakchott,40,MR,1599895664,83,18.09,-15.98,29.0,1.5
445,Varhaug,100,NO,1599895295,92,58.61,5.65,12.22,3.13
446,Padang,81,ID,1599895841,71,-0.95,100.35,27.7,1.48
447,La Santisima Trinidad,6,BO,1599895841,50,-14.83,-64.9,25.48,1.45
448,Kvam,100,NO,1599895841,67,61.67,9.69,9.07,3.46
449,Kumylzhenskaya,0,RU,1599895841,46,49.88,42.59,17.22,3.13
450,Pouébo,19,NC,1599895841,75,-20.4,164.57,20.1,6.2
451,Komsomol'skoye,61,RU,1599895842,63,55.26,47.55,15.02,4.89
452,Farafangana,14,MG,1599895842,66,-22.82,47.83,24.79,2.94
453,Tha Bo,75,TH,1599895842,74,17.85,102.58,30.0,2.1
454,Hūn,0,LY,1599895843,20,29.13,15.95,33.08,5.88
455,Hoquiam,90,US,1599895843,82,46.98,-123.89,14.0,1.0
456,Aripuanã,11,BR,1599895348,75,-9.17,-60.63,23.01,0.76
457,Marsá Maţrūḩ,0,EG,1599895358,78,31.35,27.25,25.0,2.1
458,Coxim,0,BR,1599895844,27,-18.51,-54.76,20.81,1.97
459,Ostrovnoy,31,RU,1599895365,68,68.05,39.51,10.63,6.03
460,Binucayan,75,PH,1599895844,73,8.25,125.72,30.13,1.82
461,Halifax,0,CA,1599895788,98,44.65,-63.57,7.22,0.45
462,Araceli,99,PH,1599895845,68,10.55,119.99,29.51,1.77
463,Lexington,1,US,1599895845,93,37.99,-84.48,18.89,3.1
464,Agalatovo,100,RU,1599895845,82,60.22,30.27,12.22,5.24
465,Sørland,75,NO,1599895328,87,67.67,12.69,11.0,8.7
466,Tessalit,6,ML,1599895846,30,20.2,1.01,33.39,1.56
467,Benguela,0,AO,1599895393,68,-12.58,13.41,19.0,0.73
468,Catuday,99,PH,1599895846,74,16.29,119.81,29.2,3.92
469,Skagen,75,DK,1599895712,93,57.72,10.58,14.0,5.7
470,Marzuq,0,YE,1599895342,22,14.4,46.47,31.76,0.81
471,Arys,0,KZ,1599895847,22,42.43,68.8,24.0,5.0
472,Hohhot,20,CN,1599895847,38,40.81,111.65,24.0,4.0
473,Melong,100,CM,1599895847,94,5.12,9.96,20.63,0.25
474,Cayenne,2,GF,1599895371,100,4.93,-52.33,24.0,4.36
475,Laguna,90,US,1599895848,63,38.42,-121.42,19.44,0.83
476,Ixtapa,100,MX,1599895343,99,20.7,-105.2,24.44,1.36
477,Grand Gaube,4,MU,1599895347,68,-20.01,57.66,24.44,3.13
478,Lukuledi,3,TZ,1599895849,34,-10.57,38.8,31.14,3.81
479,Yerofey Pavlovich,68,RU,1599895849,50,53.97,121.97,22.26,1.41
480,Moultonborough,1,US,1599895765,93,43.75,-71.4,9.44,0.98
481,Luangwa,0,ZM,1599895849,35,-15.62,30.42,27.47,5.5
482,Makubetsu,75,JP,1599895850,67,45.37,141.82,16.0,7.2
483,Dubbo,0,AU,1599895850,45,-32.25,148.62,20.0,0.5
484,Vikulovo,100,RU,1599895850,52,56.82,70.61,18.62,7.13
485,North Bend,90,US,1599895413,100,43.41,-124.22,12.78,1.5
486,Poltavka,100,RU,1599895850,39,54.37,71.76,19.88,7.66
487,Winslow,1,US,1599895851,37,35.02,-110.7,10.0,3.6
488,Tabriz,20,IR,1599895711,24,38.08,46.29,27.0,1.0
489,Merauke,13,ID,1599895851,68,-8.47,140.33,27.42,9.27
490,Itapetininga,100,BR,1599895851,51,-23.59,-48.05,20.64,1.14
491,Phan Thiet,99,VN,1599895852,73,10.93,108.1,30.17,4.36
492,Marinette,90,US,1599895852,93,45.1,-87.63,14.0,3.1
493,Naryan-Mar,43,RU,1599895398,77,67.67,53.09,10.85,6.33
494,São Miguel do Araguaia,0,BR,1599895331,28,-13.28,-50.16,22.52,3.3
495,Arona,40,ES,1599895821,78,28.1,-16.68,23.89,3.1
496,Linjiang,100,CN,1599895853,77,41.81,126.91,20.68,1.17
497,Yārāda,40,IN,1599895853,70,17.65,83.27,32.0,3.6
498,Santa Cruz de La Palma,40,ES,1599895853,78,28.68,-17.76,23.0,1.5
499,Krasnoslobodsk,43,RU,1599895853,28,48.71,44.57,21.0,5.0
500,Palmer,20,US,1599895854,100,42.16,-72.33,9.44,2.1
501,Sesheke,0,ZM,1599895854,31,-17.48,24.3,23.0,4.1
502,Moose Factory,1,CA,1599895854,76,51.26,-80.61,10.0,3.6
503,Thinadhoo,76,MV,1599895854,72,0.53,72.93,28.35,4.3
504,Pavlogradka,77,RU,1599895855,44,54.2,73.56,19.15,7.3
505,Spassk,0,RU,1599895855,44,52.75,87.75,15.32,2.27
506,Rapid Valley,20,US,1599895855,93,44.06,-103.15,10.56,1.5
507,Santa Cruz de la Sierra,0,BO,1599895855,88,-17.8,-63.17,21.0,1.5
508,Northbridge,0,US,1599895856,94,42.15,-71.65,11.67,2.13
509,Roald,40,NO,1599895856,66,62.58,6.13,12.0,8.7
510,Pozo Colorado,7,PY,1599895856,29,-23.49,-58.8,26.29,3.17
511,Walvis Bay,90,NA,1599895205,93,-22.96,14.51,14.44,3.1
512,Bryan,1,US,1599895856,100,30.67,-96.37,23.33,2.1
513,Codrington,100,AU,1599895370,95,-38.27,141.97,11.89,5.43
514,São João da Barra,84,BR,1599895364,87,-21.64,-41.05,21.93,8.64
515,Châteauroux,0,FR,1599895806,87,46.82,1.7,14.0,1.5
516,Severo-Yeniseyskiy,95,RU,1599895392,59,60.37,93.04,13.13,1.85
517,Riyadh,0,SA,1599895412,13,24.69,46.72,37.0,3.1
518,Guider,99,CM,1599895858,88,9.93,13.95,24.32,1.1
519,Ust-Tsilma,100,RU,1599895858,78,65.44,52.15,9.67,3.67
520,Tomatlán,99,MX,1599895858,93,19.93,-105.25,23.99,0.95
521,Conway,90,US,1599895859,100,35.09,-92.44,22.22,1.1
522,Çan,40,TR,1599895859,61,40.03,27.05,26.0,8.7
523,Maceió,30,BR,1599895859,93,-9.67,-35.74,19.0,1.5
524,Les Cayes,93,HT,1599895859,83,18.2,-73.75,25.19,1.24
525,El Dorado,1,US,1599895859,100,33.21,-92.67,23.0,1.5
526,Loandjili,75,CG,1599895860,100,-4.76,11.86,22.0,1.0
527,Jiangyou,100,CN,1599895860,80,31.77,104.72,20.49,1.04
528,Conchas,100,BR,1599895860,44,-23.02,-48.01,22.21,2.03
529,Newport,79,GB,1599895814,89,51.59,-3.0,16.11,0.89
530,Andros Town,75,BS,1599895861,88,24.7,-77.77,26.0,2.6
531,Fort Frances,90,CA,1599895861,71,48.6,-93.4,13.33,2.6
532,Sinnamary,4,GF,1599895861,88,5.38,-52.95,24.83,4.7
533,San Francisco de Becerra,92,HN,1599895861,92,14.63,-86.1,21.12,0.4
534,Batagay-Alyta,96,RU,1599895403,42,67.8,130.41,13.85,2.49
535,Dhidhdhoo,100,MV,1599895349,79,6.88,73.1,27.87,7.35
536,Pacific Grove,90,US,1599895862,82,36.62,-121.92,13.33,2.1
537,Minna,78,NG,1599895648,94,9.61,6.56,24.0,1.0
538,Qasigiannguit,62,GL,1599895862,68,68.82,-51.19,-2.0,6.7
539,Sterling,77,US,1599895862,92,39.01,-77.43,21.11,1.93
540,Guarapari,40,BR,1599895663,83,-20.67,-40.5,23.0,4.1
541,Antofagasta,90,CL,1599895588,76,-23.65,-70.4,14.0,2.1
542,Yeppoon,40,AU,1599895382,56,-23.13,150.73,23.0,6.2
543,Kumul,0,CN,1599895342,18,42.8,93.45,23.77,2.17
544,Police nad Metují,0,CZ,1599895863,56,50.54,16.23,21.11,1.34
545,Gaoua,100,BF,1599895282,94,10.3,-3.25,23.02,0.99
546,Makakilo City,1,US,1599895820,61,21.35,-158.09,26.0,2.6
547,Nelson Bay,0,AU,1599895363,56,-32.72,152.15,21.0,5.1
548,Mitrovice,0,XK,1599895864,68,42.88,20.87,21.11,1.0
